{
  "customers": [
    {
      "id": "c001",
      "code": "NT001",
      "name": "Nhà thuốc Long Hưng",
      "address": "123 Nguyễn Văn Cừ, Phường 4, Quận 5, TP.HCM",
      "phone": "02838345678",
      "latitude": 10.7594,
      "longitude": 106.6672,
      "owner": "Nguyễn Văn Long",
      "type": "Nhà thuốc",
      "hub": "Trung tâm"
    },
    {
      "id": "c002",
      "code": "NT002",
      "name": "Nhà thuốc Minh Đức",
      "address": "456 Lê Hồng Phong, Phường 1, Quận 5, TP.HCM",
      "phone": "02838345679",
      "latitude": 10.7610,
      "longitude": 106.6690,
      "owner": "Trần Thị Minh",
      "type": "Nhà thuốc",
      "hub": "Trung tâm"
    },
    {
      "id": "c003",
      "code": "NT003",
      "name": "Nhà thuốc An Khang",
      "address": "789 Trần Hưng Đạo, Phường 11, Quận 5, TP.HCM",
      "phone": "02838345680",
      "latitude": 10.7570,
      "longitude": 106.6650,
      "owner": "Lê Văn An",
      "type": "Nhà thuốc",
      "hub": "Trung tâm"
    },
    {
      "id": "c004",
      "code": "NT004",
      "name": "Nhà thuốc Phước Thành",
      "address": "321 Nguyễn Trãi, Phường 3, Quận 5, TP.HCM",
      "phone": "02838345681",
      "latitude": 10.7630,
      "longitude": 106.6710,
      "owner": "Phạm Thị Phước",
      "type": "Nhà thuốc",
      "hub": "Trung tâm"
    },
    {
      "id": "c005",
      "code": "NT005",
      "name": "Nhà thuốc Hồng Phát",
      "address": "654 Hồng Bàng, Phường 12, Quận 5, TP.HCM",
      "phone": "02838345682",
      "latitude": 10.7550,
      "longitude": 106.6630,
      "owner": "Hoàng Văn Hồng",
      "type": "Nhà thuốc",
      "hub": "Củ Chi"
    },
    {
      "id": "c006",
      "code": "NT006",
      "name": "Nhà thuốc Thành Công",
      "address": "987 An Dương Vương, Phường 9, Quận 5, TP.HCM",
      "phone": "02838345683",
      "latitude": 10.7650,
      "longitude": 106.6730,
      "owner": "Võ Thị Thành",
      "type": "Nhà thuốc",
      "hub": "Củ Chi"
    },
    {
      "id": "c007",
      "code": "NT007",
      "name": "Nhà thuốc Bình An",
      "address": "147 Võ Văn Tần, Phường 6, Quận 3, TP.HCM",
      "phone": "02839345684",
      "latitude": 10.7756,
      "longitude": 106.6878,
      "owner": "Đặng Văn Bình",
      "type": "Nhà thuốc",
      "hub": "Trung tâm"
    },
    {
      "id": "c008",
      "code": "NT008",
      "name": "Nhà thuốc Đức Hạnh",
      "address": "258 Lý Tự Trọng, Phường Bến Nghé, Quận 1, TP.HCM",
      "phone": "02838245685",
      "latitude": 10.7769,
      "longitude": 106.7009,
      "owner": "Bùi Thị Đức",
      "type": "Nhà thuốc",
      "hub": "Trung tâm"
    },
    {
      "id": "c009",
      "code": "NT009",
      "name": "Nhà thuốc Phú Thọ",
      "address": "369 Điện Biên Phủ, Phường 25, Bình Thạnh, TP.HCM",
      "phone": "02838445686",
      "latitude": 10.8014,
      "longitude": 106.7108,
      "owner": "Ngô Văn Phú",
      "type": "Nhà thuốc",
      "hub": "Đồng Nai"
    },
    {
      "id": "c010",
      "code": "NT010",
      "name": "Nhà thuốc Gia Định",
      "address": "741 Nguyễn Oanh, Phường 10, Gò Vấp, TP.HCM",
      "phone": "02838545687",
      "latitude": 10.8376,
      "longitude": 106.6717,
      "owner": "Đỗ Thị Gia",
      "type": "Nhà thuốc",
      "hub": "Củ Chi"
    },
    {
      "id": "c011",
      "code": "NT011",
      "name": "Nhà thuốc Tân Phú",
      "address": "852 Tân Hương, Phường Tân Phú, Quận 7, TP.HCM",
      "phone": "02838645688",
      "latitude": 10.7378,
      "longitude": 106.7197,
      "owner": "Lý Văn Tân",
      "type": "Nhà thuốc",
      "hub": "Đồng Nai"
    },
    {
      "id": "c012",
      "code": "NT012",
      "name": "Nhà thuốc Thủ Đức",
      "address": "963 Võ Văn Ngân, Phường Linh Chiểu, Thủ Đức, TP.HCM",
      "phone": "02838745689",
      "latitude": 10.8525,
      "longitude": 106.7717,
      "owner": "Trương Thị Thủ",
      "type": "Nhà thuốc",
      "hub": "Đồng Nai"
    },
    {
      "id": "c013",
      "code": "NTC001",
      "name": "Nhà thuốc Bùi Đức Niềm",
      "address": "101C Nguyễn Trung Trực, Phường 1, Tân An, Long An",
      "phone": "02723829282",
      "latitude": 10.5369,
      "longitude": 106.4136,
      "owner": "Bùi Đức Niềm",
      "type": "Nhà thuốc",
      "hub": "Củ Chi"
    },
    {
      "id": "c014",
      "code": "NTC002",
      "name": "Nhà thuốc Tế Lương Đường",
      "address": "9 Hùng Vương, Phường 1, Tân An, Long An",
      "phone": "0987603737",
      "latitude": 10.5375,
      "longitude": 106.4142,
      "owner": "Nguyễn Văn Tế",
      "type": "Nhà thuốc",
      "hub": "Củ Chi"
    },
    {
      "id": "c015",
      "code": "NTC003",
      "name": "Nhà thuốc Phước An Hòa",
      "address": "27 Nguyễn Trung Trực, Phường 2, Tân An, Long An",
      "phone": "02723661334",
      "latitude": 10.5381,
      "longitude": 106.4148,
      "owner": "Trần Thị Phước",
      "type": "Nhà thuốc",
      "hub": "Củ Chi"
    },
    {
      "id": "c016",
      "code": "NTC004",
      "name": "Nhà thuốc Võ Tấn Hảo",
      "address": "31 Nguyễn Trung Trực, Phường 2, Tân An, Long An",
      "phone": "0377284558",
      "latitude": 10.5387,
      "longitude": 106.4154,
      "owner": "Võ Tấn Hảo",
      "type": "Nhà thuốc",
      "hub": "Củ Chi"
    },
    {
      "id": "c017",
      "code": "NTC005",
      "name": "Nhà thuốc Bạch Hổ Đường",
      "address": "130 Hùng Vương, Phường 2, Tân An, Long An",
      "phone": "0832335445",
      "latitude": 10.5393,
      "longitude": 106.4160,
      "owner": "Lê Văn Bạch",
      "type": "Nhà thuốc",
      "hub": "Củ Chi"
    },
    {
      "id": "c018",
      "code": "NTC006",
      "name": "Nhà thuốc Bạch Yến",
      "address": "171 Hùng Vương, Phường 2, Tân An, Long An",
      "phone": "0909526275",
      "latitude": 10.5399,
      "longitude": 106.4166,
      "owner": "Phạm Thị Yến",
      "type": "Nhà thuốc",
      "hub": "Củ Chi"
    },
    {
      "id": "c019",
      "code": "NTC007",
      "name": "Nhà thuốc Bạch Yến 2",
      "address": "08 Quốc lộ 62, Phường 2, Tân An, Long An",
      "phone": "02723829643",
      "latitude": 10.5405,
      "longitude": 106.4172,
      "owner": "Hoàng Thị Yến",
      "type": "Nhà thuốc",
      "hub": "Củ Chi"
    },
    {
      "id": "c020",
      "code": "NTC008",
      "name": "Nhà thuốc Bạch Yến 3",
      "address": "12 Châu Thị Kim, Phường 3, Tân An, Long An",
      "phone": "0869106681",
      "latitude": 10.5411,
      "longitude": 106.4178,
      "owner": "Đỗ Thị Yến",
      "type": "Nhà thuốc",
      "hub": "Củ Chi"
    },
    {
      "id": "c021",
      "code": "NTC009",
      "name": "Nhà thuốc Phước An Đường",
      "address": "13B Trần Phong Sắc, Phường 4, Tân An, Long An",
      "phone": "0916301835",
      "latitude": 10.5417,
      "longitude": 106.4184,
      "owner": "Vũ Văn Phước",
      "type": "Nhà thuốc",
      "hub": "Củ Chi"
    },
    {
      "id": "c022",
      "code": "NTC010",
      "name": "Nhà thuốc Mai Chi Lan",
      "address": "62 Nguyễn Văn Tạo, Phường 4, Tân An, Long An",
      "phone": "02723834877",
      "latitude": 10.5423,
      "longitude": 106.4190,
      "owner": "Mai Chi Lan",
      "type": "Nhà thuốc",
      "hub": "Củ Chi"
    },
    {
      "id": "c023",
      "code": "NTC011",
      "name": "Nhà thuốc An Phú",
      "address": "45 Lê Lợi, Phường 1, Tân An, Long An",
      "phone": "02723829999",
      "latitude": 10.5429,
      "longitude": 106.4196,
      "owner": "Nguyễn Văn An",
      "type": "Nhà thuốc",
      "hub": "Củ Chi"
    },
    {
      "id": "c024",
      "code": "NTC012",
      "name": "Nhà thuốc Thành Đạt",
      "address": "78 Trần Hưng Đạo, Phường 2, Tân An, Long An",
      "phone": "02723828888",
      "latitude": 10.5435,
      "longitude": 106.4202,
      "owner": "Trần Văn Thành",
      "type": "Nhà thuốc",
      "hub": "Củ Chi"
    },
    {
      "id": "c025",
      "code": "NTC013",
      "name": "Nhà thuốc Minh Khang",
      "address": "112 Nguyễn Huệ, Phường 3, Tân An, Long An",
      "phone": "02723827777",
      "latitude": 10.5441,
      "longitude": 106.4208,
      "owner": "Lê Thị Minh",
      "type": "Nhà thuốc",
      "hub": "Củ Chi"
    },
    {
      "id": "c026",
      "code": "NTC014",
      "name": "Nhà thuốc Hưng Thịnh",
      "address": "234 Quốc lộ 1A, Phường 4, Tân An, Long An",
      "phone": "02723826666",
      "latitude": 10.5447,
      "longitude": 106.4214,
      "owner": "Phạm Văn Hưng",
      "type": "Nhà thuốc",
      "hub": "Củ Chi"
    },
    {
      "id": "c027",
      "code": "NTC015",
      "name": "Nhà thuốc Phát Đạt",
      "address": "156 Đường 30/4, Phường 1, Tân An, Long An",
      "phone": "02723825555",
      "latitude": 10.5453,
      "longitude": 106.4220,
      "owner": "Hoàng Văn Phát",
      "type": "Nhà thuốc",
      "hub": "Củ Chi"
    },
    {
      "id": "c028",
      "code": "NTCL001",
      "name": "Nhà thuốc Cao Lãnh",
      "address": "123 Nguyễn Huệ, Phường 1, Cao Lãnh, Đồng Tháp",
      "phone": "02773821111",
      "latitude": 10.4606,
      "longitude": 105.6339,
      "owner": "Nguyễn Văn Cao",
      "type": "Nhà thuốc",
      "hub": "Đồng Nai"
    },
    {
      "id": "c029",
      "code": "NTCL002",
      "name": "Nhà thuốc Đồng Tháp",
      "address": "45 Trần Hưng Đạo, Phường 2, Cao Lãnh, Đồng Tháp",
      "phone": "02773822222",
      "latitude": 10.4612,
      "longitude": 105.6345,
      "owner": "Trần Thị Đồng",
      "type": "Nhà thuốc",
      "hub": "Đồng Nai"
    },
    {
      "id": "c030",
      "code": "NTCL003",
      "name": "Nhà thuốc An Bình",
      "address": "78 Lê Lợi, Phường 3, Cao Lãnh, Đồng Tháp",
      "phone": "02773823333",
      "latitude": 10.4618,
      "longitude": 105.6351,
      "owner": "Lê Văn An",
      "type": "Nhà thuốc",
      "hub": "Đồng Nai"
    },
    {
      "id": "c031",
      "code": "NTCL004",
      "name": "Nhà thuốc Phước Lộc",
      "address": "112 Nguyễn Trãi, Phường 4, Cao Lãnh, Đồng Tháp",
      "phone": "02773824444",
      "latitude": 10.4624,
      "longitude": 105.6357,
      "owner": "Phạm Thị Phước",
      "type": "Nhà thuốc",
      "hub": "Đồng Nai"
    },
    {
      "id": "c032",
      "code": "NTCL005",
      "name": "Nhà thuốc Thành Công",
      "address": "234 Hùng Vương, Phường 5, Cao Lãnh, Đồng Tháp",
      "phone": "02773825555",
      "latitude": 10.4630,
      "longitude": 105.6363,
      "owner": "Võ Văn Thành",
      "type": "Nhà thuốc",
      "hub": "Đồng Nai"
    },
    {
      "id": "c033",
      "code": "NTCL006",
      "name": "Nhà thuốc Hồng Phát",
      "address": "156 Quốc lộ 30, Phường 6, Cao Lãnh, Đồng Tháp",
      "phone": "02773826666",
      "latitude": 10.4636,
      "longitude": 105.6369,
      "owner": "Hoàng Thị Hồng",
      "type": "Nhà thuốc",
      "hub": "Đồng Nai"
    },
    {
      "id": "c034",
      "code": "NTCL007",
      "name": "Nhà thuốc Minh Đức",
      "address": "89 Đường 30/4, Phường 1, Cao Lãnh, Đồng Tháp",
      "phone": "02773827777",
      "latitude": 10.4642,
      "longitude": 105.6375,
      "owner": "Đặng Văn Minh",
      "type": "Nhà thuốc",
      "hub": "Đồng Nai"
    },
    {
      "id": "c035",
      "code": "NTCL008",
      "name": "Nhà thuốc Gia Hưng",
      "address": "67 Lý Tự Trọng, Phường 2, Cao Lãnh, Đồng Tháp",
      "phone": "02773828888",
      "latitude": 10.4648,
      "longitude": 105.6381,
      "owner": "Ngô Thị Gia",
      "type": "Nhà thuốc",
      "hub": "Đồng Nai"
    },
    {
      "id": "c036",
      "code": "NTCL009",
      "name": "Nhà thuốc Đức Hạnh",
      "address": "145 Nguyễn Du, Phường 3, Cao Lãnh, Đồng Tháp",
      "phone": "02773829999",
      "latitude": 10.4654,
      "longitude": 105.6387,
      "owner": "Bùi Văn Đức",
      "type": "Nhà thuốc",
      "hub": "Đồng Nai"
    },
    {
      "id": "c037",
      "code": "NTCL010",
      "name": "Nhà thuốc Phú Thọ",
      "address": "201 Trần Phú, Phường 4, Cao Lãnh, Đồng Tháp",
      "phone": "02773820000",
      "latitude": 10.4660,
      "longitude": 105.6393,
      "owner": "Lý Thị Phú",
      "type": "Nhà thuốc",
      "hub": "Đồng Nai"
    },
    {
      "id": "c038",
      "code": "NTCL011",
      "name": "Nhà thuốc Tân Phú",
      "address": "56 Võ Thị Sáu, Phường 5, Cao Lãnh, Đồng Tháp",
      "phone": "02773821111",
      "latitude": 10.4666,
      "longitude": 105.6399,
      "owner": "Trương Văn Tân",
      "type": "Nhà thuốc",
      "hub": "Đồng Nai"
    },
    {
      "id": "c039",
      "code": "NTCL012",
      "name": "Nhà thuốc Bình An",
      "address": "134 Điện Biên Phủ, Phường 6, Cao Lãnh, Đồng Tháp",
      "phone": "02773822222",
      "latitude": 10.4672,
      "longitude": 105.6405,
      "owner": "Đỗ Văn Bình",
      "type": "Nhà thuốc",
      "hub": "Đồng Nai"
    },
    {
      "id": "c040",
      "code": "NTCL013",
      "name": "Nhà thuốc Thịnh Vượng",
      "address": "78 Lê Duẩn, Phường 1, Cao Lãnh, Đồng Tháp",
      "phone": "02773823333",
      "latitude": 10.4678,
      "longitude": 105.6411,
      "owner": "Vũ Thị Thịnh",
      "type": "Nhà thuốc",
      "hub": "Đồng Nai"
    },
    {
      "id": "c041",
      "code": "NTCL014",
      "name": "Nhà thuốc Hưng Thịnh",
      "address": "92 Phan Đình Phùng, Phường 2, Cao Lãnh, Đồng Tháp",
      "phone": "02773824444",
      "latitude": 10.4684,
      "longitude": 105.6417,
      "owner": "Phan Văn Hưng",
      "type": "Nhà thuốc",
      "hub": "Đồng Nai"
    },
    {
      "id": "c042",
      "code": "NTCL015",
      "name": "Nhà thuốc Phát Đạt",
      "address": "167 Nguyễn Thái Học, Phường 3, Cao Lãnh, Đồng Tháp",
      "phone": "02773825555",
      "latitude": 10.4690,
      "longitude": 105.6423,
      "owner": "Hoàng Văn Phát",
      "type": "Nhà thuốc",
      "hub": "Đồng Nai"
    },
    {
      "id": "c043",
      "code": "NTCL016",
      "name": "Nhà thuốc An Khang",
      "address": "45 Trần Quốc Toản, Phường 4, Cao Lãnh, Đồng Tháp",
      "phone": "02773826666",
      "latitude": 10.4696,
      "longitude": 105.6429,
      "owner": "Nguyễn Thị An",
      "type": "Nhà thuốc",
      "hub": "Đồng Nai"
    },
    {
      "id": "c044",
      "code": "NTCL017",
      "name": "Nhà thuốc Thành Lợi",
      "address": "123 Ngô Gia Tự, Phường 5, Cao Lãnh, Đồng Tháp",
      "phone": "02773827777",
      "latitude": 10.4702,
      "longitude": 105.6435,
      "owner": "Trần Văn Thành",
      "type": "Nhà thuốc",
      "hub": "Đồng Nai"
    },
    {
      "id": "c045",
      "code": "NTCL018",
      "name": "Nhà thuốc Phước Lộc",
      "address": "89 Lê Hồng Phong, Phường 6, Cao Lãnh, Đồng Tháp",
      "phone": "02773828888",
      "latitude": 10.4708,
      "longitude": 105.6441,
      "owner": "Lê Thị Phước",
      "type": "Nhà thuốc",
      "hub": "Đồng Nai"
    },
    {
      "id": "c046",
      "code": "NTCL019",
      "name": "Nhà thuốc Gia Bình",
      "address": "156 Hoàng Diệu, Phường 1, Cao Lãnh, Đồng Tháp",
      "phone": "02773829999",
      "latitude": 10.4714,
      "longitude": 105.6447,
      "owner": "Phạm Văn Gia",
      "type": "Nhà thuốc",
      "hub": "Đồng Nai"
    },
    {
      "id": "c047",
      "code": "NTCL020",
      "name": "Nhà thuốc Đức Tài",
      "address": "234 Nguyễn Văn Linh, Phường 2, Cao Lãnh, Đồng Tháp",
      "phone": "02773821000",
      "latitude": 10.4720,
      "longitude": 105.6453,
      "owner": "Võ Thị Đức",
      "type": "Nhà thuốc",
      "hub": "Đồng Nai"
    }
  ]
}
